name,lat,lng,max_temp_f,humidity,cloudiness,windspeed,country,date
Ushuaia,-54.8,-68.3,51.8,77,75,19.46,AR,1600878403
Aykhal,66.0,111.5,42.8,52,20,6.71,RU,1600878403
Rikitea,-23.12,-134.97,72.03,74,4,14.18,PF,1600878404
Punta Arenas,-53.15,-70.92,53.6,54,75,29.97,CL,1600878185
Sinnamary,5.38,-52.95,86.7,61,98,13.35,GF,1600878404
Castro,-24.79,-50.01,68.85,60,63,6.82,BR,1600878404
Tuktoyaktuk,69.45,-133.04,35.6,93,75,4.7,CA,1600878405
Ilulissat,69.22,-51.1,28.4,58,20,4.7,GL,1600878405
Primorsko-Akhtarsk,46.05,38.17,73.09,34,0,9.24,RU,1600878405
Kitimat,54.05,-128.65,50.0,94,100,1.05,CA,1600878405
Scarborough,54.28,-0.4,53.01,94,100,5.99,GB,1600878406
Kuril'sk,45.23,147.88,50.83,75,0,4.88,RU,1600878406
Morondava,-20.28,44.28,77.04,70,0,20.94,MG,1600878406
Mastic Beach,40.77,-72.85,75.2,41,1,11.41,US,1600878406
Kapaa,22.08,-159.32,80.6,74,40,12.75,US,1600878407
Jamestown,42.1,-79.24,70.0,68,40,11.41,US,1600878407
Santa Fe,-31.63,-60.7,75.76,36,41,4.59,AR,1600878407
Caravelas,-17.71,-39.25,81.39,59,73,11.27,BR,1600878407
Sola,-13.88,167.55,78.1,82,10,19.77,VU,1600878408
Bambous Virieux,-20.34,57.76,69.8,73,40,3.36,MU,1600878408
Saint-Augustin,51.23,-58.65,60.49,89,100,10.67,CA,1600878408
Mallaig,54.22,-111.37,54.55,74,0,14.72,CA,1600878408
Busselton,-33.65,115.33,57.99,53,0,14.09,AU,1600878409
Padang,-0.95,100.35,75.9,85,100,5.06,ID,1600878409
Río Gallegos,-51.62,-69.22,59.0,33,75,14.99,AR,1600878299
Chenzhou,25.8,113.03,62.92,91,100,0.98,CN,1600878409
Atuona,-9.8,-139.03,77.94,72,30,22.32,PF,1600878409
Nikolskoye,59.7,30.79,64.99,77,0,4.47,RU,1600878410
Ribeira Grande,38.52,-28.7,69.8,60,75,20.8,PT,1600878410
Albany,42.6,-73.97,68.0,68,40,13.87,US,1600878333
Butaritari,3.07,172.79,81.64,75,61,14.94,KI,1600878410
Dikson,73.51,80.55,40.39,84,96,15.66,RU,1600878410
Zeya,53.75,127.27,50.09,83,100,5.79,RU,1600878411
Ixtapa,20.7,-105.2,86.0,74,40,3.36,MX,1600878411
New Norfolk,-42.78,147.06,42.01,77,43,2.33,AU,1600878411
Flinders,-34.58,150.86,55.0,65,0,3.0,AU,1600878412
Qaanaaq,77.48,-69.36,15.66,82,72,13.78,GL,1600878412
Kalmunai,7.42,81.82,82.17,78,70,5.26,LK,1600878412
Haines Junction,60.75,-137.51,38.53,83,100,2.82,CA,1600878412
Barrow,71.29,-156.79,30.2,68,90,5.82,US,1600878413
Cayenne,4.93,-52.33,89.6,55,68,11.41,GF,1600878413
Casimiro de Abreu,-22.48,-42.2,75.2,73,75,9.17,BR,1600878413
Abonnema,4.71,6.79,80.6,88,75,5.82,NG,1600878413
Souillac,-20.52,57.52,69.8,73,40,3.36,MU,1600878414
Vestmannaeyjar,63.44,-20.27,42.8,63,20,5.82,IS,1600878414
Annau,37.89,58.52,71.6,28,0,6.93,TM,1600878414
Mirny,62.54,113.96,41.0,80,0,4.47,RU,1600878414
Bengkulu,-3.8,102.27,78.66,89,95,6.38,ID,1600878415
Hobart,-42.88,147.33,44.6,81,75,4.7,AU,1600878415
Wattegama,6.8,81.48,80.6,83,75,5.82,LK,1600878415
Moose Factory,51.26,-80.61,62.6,72,90,9.17,CA,1600878415
Pacifica,37.61,-122.49,64.0,72,1,6.93,US,1600878415
Vyazemskiy,47.54,134.75,53.71,86,96,4.97,RU,1600878416
Ayr,55.46,-4.63,55.4,62,40,5.82,GB,1600878416
Port Hardy,50.7,-127.42,55.4,87,90,14.99,CA,1600878416
Fortuna,40.6,-124.16,64.99,87,1,8.05,US,1600878189
Aquin,18.28,-73.4,86.27,65,23,7.02,HT,1600878417
Verkhnevilyuysk,63.45,120.32,40.44,76,0,3.02,RU,1600878417
Villa Carlos Paz,-31.42,-64.5,86.0,19,81,11.41,AR,1600878417
Katsuura,35.13,140.3,66.2,93,75,21.92,JP,1600878417
Avarua,-21.21,-159.78,73.4,94,94,6.93,CK,1600878417
Ushtobe,45.25,77.98,59.05,32,42,7.92,KZ,1600878418
Namwala,-15.75,26.44,83.14,20,0,8.14,ZM,1600878418
Vila Franca do Campo,37.72,-25.43,66.2,88,75,27.51,PT,1600878418
Arraial do Cabo,-22.97,-42.03,75.2,64,75,11.41,BR,1600878418
Dingle,11.0,122.67,76.32,89,57,2.66,PH,1600878419
Ponta do Sol,32.67,-17.1,80.6,57,40,16.11,PT,1600878419
Itarema,-2.92,-39.92,87.58,50,0,21.12,BR,1600878419
Ahvāz,31.32,48.67,89.6,31,0,2.24,IR,1600878419
Sokoni,-6.43,39.55,80.6,74,20,12.75,TZ,1600878420
Bakchar,57.02,82.07,41.16,87,51,8.63,RU,1600878420
Longyearbyen,78.22,15.64,32.0,91,75,11.41,SJ,1600878331
Freetown,8.48,-13.23,84.2,70,75,10.29,SL,1600878420
Vanavara,60.34,102.28,42.21,87,95,5.93,RU,1600878421
Nortelândia,-14.45,-56.8,101.93,27,66,4.72,BR,1600878421
Okhotsk,59.38,143.3,45.28,82,54,2.71,RU,1600878421
Karratha,-20.74,116.85,71.53,48,4,4.97,AU,1600878422
Mataura,-46.19,168.86,51.01,77,95,7.0,NZ,1600878422
Hithadhoo,-0.6,73.08,82.87,62,43,5.19,MV,1600878422
Nome,64.5,-165.41,35.6,64,1,8.05,US,1600878252
Upernavik,72.79,-56.15,27.7,97,98,10.56,GL,1600878422
Kavaratti,10.57,72.64,81.61,81,99,18.5,IN,1600878423
Zhangaözen,43.3,52.8,65.17,28,0,4.79,KZ,1600878423
Srednekolymsk,67.45,153.68,36.93,90,38,7.34,RU,1600878423
Joshīmath,30.57,79.57,61.34,58,19,1.1,IN,1600878424
Puerto Ayora,-0.74,-90.35,69.01,86,99,8.01,EC,1600878424
Saint George,37.1,-113.58,78.01,28,1,3.36,US,1600878135
Xuzhou,34.18,117.16,65.84,80,46,5.1,CN,1600878424
Houlton,46.13,-67.84,68.0,42,1,19.46,US,1600878425
Quang Ngai,15.12,108.8,78.33,84,94,3.42,VN,1600878415
Bluff,-46.6,168.33,51.01,77,79,7.0,NZ,1600878425
Ahipara,-35.17,173.17,58.59,91,46,10.4,NZ,1600878426
Mehamn,71.04,27.85,42.8,75,75,14.99,NO,1600878426
Buchanan,5.88,-10.05,81.12,76,22,11.41,LR,1600878426
Cape Town,-33.93,18.42,63.0,77,27,13.87,ZA,1600878343
Port Elizabeth,-33.92,25.57,64.4,77,36,2.24,ZA,1600878427
Laguna,38.42,-121.42,68.0,63,1,3.31,US,1600878427
Vaini,-21.2,-175.2,69.8,88,20,5.82,TO,1600878427
Port Alfred,-33.59,26.89,65.32,69,20,6.15,ZA,1600878428
Cabo San Lucas,22.89,-109.91,90.0,66,20,8.05,MX,1600878428
Inuvik,68.35,-133.72,32.0,86,90,5.82,CA,1600878428
Salalah,17.02,54.09,80.6,88,90,9.17,OM,1600878225
Kimbe,-5.55,150.14,76.1,88,61,3.42,PG,1600878429
Bredasdorp,-34.53,20.04,60.8,77,0,6.93,ZA,1600878429
Anadyr,64.75,177.48,35.6,93,100,11.18,RU,1600878429
Sijunjung,-0.69,100.95,73.81,92,99,1.77,ID,1600878429
Chui,-33.7,-53.46,64.09,58,64,4.52,UY,1600878430
Kasongo,-4.45,26.67,79.23,66,49,3.27,CD,1600878430
Castelvetro di Modena,44.51,10.95,73.4,64,37,3.36,IT,1600878430
Mackenzie,55.3,-123.17,50.0,93,90,2.24,CA,1600878430
Cherskiy,68.75,161.3,41.23,94,100,14.23,RU,1600878431
George Town,5.41,100.34,84.2,78,40,6.93,MY,1600877761
Yellowknife,62.46,-114.35,46.99,100,75,11.41,CA,1600878431
Aksarka,66.56,67.8,39.92,87,99,5.23,RU,1600878432
Beyneu,45.32,55.2,62.49,30,0,8.72,KZ,1600878432
Yar-Sale,66.83,70.83,39.72,81,91,10.11,RU,1600878432
Thompson,55.74,-97.86,44.6,75,75,3.36,CA,1600878432
Fairbanks,64.84,-147.72,46.4,93,90,4.27,US,1600878375
Saurimo,-9.66,20.39,81.95,41,72,5.28,AO,1600878433
Dogondoutchi,13.64,4.03,97.54,29,0,4.99,NE,1600878433
Lompoc,34.64,-120.46,59.0,82,1,3.36,US,1600878433
Were Īlu,10.6,39.43,54.37,65,100,4.94,ET,1600878433
Kudahuvadhoo,2.67,72.89,82.74,75,84,10.83,MV,1600878433
Beberibe,-4.18,-38.13,86.0,55,20,28.86,BR,1600878383
Jiwani,25.05,61.74,84.58,65,0,6.44,PK,1600878434
Mar del Plata,-38.0,-57.56,62.6,55,100,6.93,AR,1600878434
Kropotkin,45.44,40.58,70.2,45,0,8.93,RU,1600878434
Hilo,19.73,-155.09,75.2,83,90,6.93,US,1600878181
Sakakah,29.97,40.21,96.8,11,8,3.36,SA,1600878435
Labuhan,-6.88,112.21,80.6,79,84,4.85,ID,1600878435
Port Augusta,-32.5,137.77,46.99,100,75,5.82,AU,1600878435
Kayerkan,69.35,87.76,37.4,86,100,6.71,RU,1600878436
Saint Simons,31.14,-81.39,77.0,60,1,5.82,US,1600878436
Lakatoro,-16.1,167.42,77.0,78,20,6.93,VU,1600878436
Kerema,-7.96,145.78,77.41,89,100,6.29,PG,1600878436
Nivala,63.92,24.97,52.0,91,98,4.0,FI,1600878185
Prince Rupert,54.32,-130.32,53.6,93,90,8.05,CA,1600878153
Hamilton,39.18,-84.53,72.0,60,1,3.36,US,1600878330
Gambēla,8.25,34.58,74.75,72,97,4.05,ET,1600878437
Lagoa,39.05,-27.98,64.31,76,49,23.51,PT,1600878437
Okha,53.57,142.95,44.19,80,0,4.09,RU,1600878438
Mount Gambier,-37.83,140.77,42.8,93,75,5.82,AU,1600878438
Iqaluit,63.75,-68.51,37.4,74,90,24.16,CA,1600878275
The Valley,18.22,-63.06,89.6,66,20,11.41,AI,1600878438
Shitanjing,39.23,106.34,57.92,36,0,5.99,CN,1600878439
Ulaangom,49.98,92.07,55.2,40,63,10.67,MN,1600878439
Grants,35.15,-107.85,68.0,32,1,5.82,US,1600878439
Airai,-8.93,125.41,61.72,61,0,2.84,TL,1600878439
Druzhnaya Gorka,59.28,30.14,64.99,77,0,4.47,RU,1600878440
Wanning,18.8,110.4,80.64,81,99,0.89,CN,1600878440
Nidau,47.13,7.24,70.0,60,75,4.7,CH,1600878440
Las Lomas,8.43,-82.4,80.6,83,75,2.24,PA,1600878440
Hong Kong,22.29,114.16,84.0,74,87,6.04,HK,1600878311
Tura,25.52,90.22,73.67,98,100,5.66,IN,1600878441
Kruisfontein,-34.0,24.73,64.0,73,30,1.01,ZA,1600878441
Kahului,20.89,-156.47,75.2,64,40,3.36,US,1600878441
Sikasso,10.92,-7.0,85.98,61,92,3.33,ML,1600878442
Tulsīpur,28.13,82.3,71.98,89,100,2.71,NP,1600878442
Laplace,30.07,-90.48,78.8,83,90,6.93,US,1600878442
Gavrilovka Vtoraya,52.88,42.77,59.88,61,60,3.36,RU,1600878442
East London,-33.02,27.91,68.0,72,6,5.82,ZA,1600878442
Camacha,33.08,-16.33,77.0,73,40,17.22,PT,1600878443
Sabang,5.89,95.32,80.78,83,97,20.94,ID,1600878443
Bletchley,51.99,-0.73,57.99,93,75,11.41,GB,1600878443
Nouakchott,18.09,-15.98,87.8,66,0,11.41,MR,1600878408
Sibu,2.3,111.82,77.0,94,40,6.93,MY,1600878444
Juigalpa,12.11,-85.36,89.6,52,40,4.7,NI,1600878444
Erenhot,43.65,111.98,61.0,36,0,7.52,CN,1600878444
Tuatapere,-46.13,167.68,51.01,77,51,7.0,NZ,1600878444
Lebu,-37.62,-73.65,55.11,64,37,12.37,CL,1600878444
Faanui,-16.48,-151.75,78.44,79,19,15.64,PF,1600878445
Talnakh,69.49,88.4,37.4,86,98,6.71,RU,1600878305
Kichera,55.94,110.1,42.26,72,0,2.13,RU,1600878445
Puerto del Rosario,28.5,-13.86,86.0,55,11,23.04,ES,1600878445
Skovorodino,53.98,123.92,48.31,89,100,11.54,RU,1600878446
Ucluelet,48.93,-125.55,59.0,93,90,11.41,CA,1600878254
Clyde River,70.47,-68.59,30.2,74,20,5.82,CA,1600878446
Naze,28.37,129.48,78.8,94,90,2.24,JP,1600878446
Beloha,-25.17,45.05,61.57,70,0,12.5,MG,1600878446
Sur,22.57,59.53,83.14,57,53,3.44,OM,1600878447
Lorengau,-2.02,147.27,82.44,69,88,5.32,PG,1600878447
Esperance,-33.87,121.9,48.2,100,14,5.82,AU,1600878447
Margate,51.38,1.39,64.99,81,100,3.0,GB,1600878447
Valley City,46.92,-98.0,62.6,72,1,12.75,US,1600878448
Geraldton,-28.77,114.6,60.8,26,66,8.05,AU,1600878448
Weihai,37.5,122.11,64.78,71,24,5.79,CN,1600878448
Bacolod City,10.67,122.95,79.11,85,99,8.41,PH,1600878448
Namatanai,-3.67,152.43,79.5,68,19,4.68,PG,1600878449
Ngunguru,-35.62,174.5,61.0,85,59,5.99,NZ,1600878449
Portland,45.52,-122.68,63.0,82,90,8.05,US,1600877969
Saint-Philippe,-21.36,55.77,68.0,68,27,5.84,RE,1600878449
Comodoro Rivadavia,-45.87,-67.5,62.6,46,0,14.99,AR,1600878295
Beckley,37.78,-81.19,64.4,59,1,3.36,US,1600878450
Tiksi,71.69,128.87,43.88,73,38,12.64,RU,1600878450
Barabai,-2.58,115.38,75.78,87,100,0.63,ID,1600878450
San Juan,-31.54,-68.54,77.25,18,89,11.41,AR,1600878450
Marsá Maţrūḩ,31.35,27.25,78.8,61,40,11.41,EG,1600878451
Hasaki,35.73,140.83,68.0,94,75,18.34,JP,1600878451
Palmerston,-12.49,130.98,80.6,83,52,3.36,AU,1600878451
Oberá,-27.49,-55.12,85.53,32,0,4.27,AR,1600878451
Codrington,-38.27,141.97,45.46,83,99,7.81,AU,1600878452
Saint-Pierre,-21.34,55.48,68.0,68,5,7.0,RE,1600878452
San Quintín,30.48,-115.95,77.77,51,0,8.16,MX,1600878452
Mayumba,-3.43,10.66,77.36,79,67,7.54,GA,1600878452
Mananara,-16.17,49.77,67.64,78,0,4.7,MG,1600878453
Champerico,14.3,-91.92,87.8,62,40,6.93,GT,1600878453
Paamiut,61.99,-49.67,36.82,73,100,10.83,GL,1600878453
Mughal Sarāi,25.3,83.12,80.6,94,90,9.17,IN,1600878453
Ketchikan,55.34,-131.65,55.4,100,90,25.28,US,1600878454
Bayan,46.08,127.4,51.76,96,2,8.88,CN,1600878249
Tazovsky,67.47,78.7,37.8,81,30,8.77,RU,1600878454
Millet,53.1,-113.47,55.99,76,75,19.46,CA,1600878454
Hualmay,-11.1,-77.61,68.22,65,52,8.16,PE,1600878454
Marabu,4.41,114.01,73.4,100,40,4.79,MY,1600878455
Markova,48.68,24.41,73.4,46,27,4.47,UA,1600878455
Kenai,60.55,-151.26,51.01,81,90,11.41,US,1600878455
Mandalgovi,45.76,106.27,53.62,50,73,8.03,MN,1600878455
Usta Muhammad,28.18,68.04,89.35,11,0,2.62,PK,1600878456
Fort William,56.82,-5.11,54.0,56,78,1.52,GB,1600878456
Coyhaique,-45.58,-72.07,51.8,43,20,8.05,CL,1600878456
Mahébourg,-20.41,57.7,69.8,73,40,3.36,MU,1600878456
Yertsevo,60.8,40.09,44.92,81,84,5.35,RU,1600878456
Carmagnola,44.85,7.72,77.0,64,40,3.53,IT,1600878457
Bilma,18.69,12.92,100.74,10,0,4.21,NE,1600878457
Pisco,-13.7,-76.22,66.0,77,75,8.05,PE,1600878281
São Filipe,14.9,-24.5,80.69,77,16,5.28,CV,1600878457
Waipawa,-41.41,175.52,59.0,93,32,19.46,NZ,1600878458
Willowmore,-33.29,23.49,77.13,17,0,7.54,ZA,1600878458
Kununurra,-15.77,128.73,78.8,74,34,2.24,AU,1600878458
Kumul,42.8,93.45,69.96,27,2,7.76,CN,1600878458
Olafsvik,64.89,-23.71,38.43,74,99,23.09,IS,1600878458
Sitka,57.05,-135.33,53.6,81,90,11.41,US,1600878459
Klaksvík,62.23,-6.59,42.8,87,51,17.22,FO,1600878459
Hearst,49.68,-83.67,56.86,81,44,3.85,CA,1600878459
Yulara,-25.24,130.99,60.8,25,0,10.29,AU,1600878459
Kaniama,-7.57,24.18,82.49,47,33,1.68,CD,1600878460
Yatou,37.15,122.38,61.66,78,79,3.49,CN,1600878460
Santa Cruz del Sur,20.71,-78.0,85.68,68,20,9.53,CU,1600878460
Changji,44.02,87.32,64.4,36,94,4.47,CN,1600878460
Kaitangata,-46.28,169.85,48.99,78,89,4.0,NZ,1600878461
Port Macquarie,-31.43,152.92,48.0,96,0,8.77,AU,1600878250
Obo,5.4,26.49,76.62,83,7,2.64,CF,1600878461
Bethel,41.37,-73.41,70.0,49,1,10.29,US,1600878461
Puerto Nariño,-3.77,-70.38,87.8,66,75,3.36,CO,1600878462
Samarai,-10.62,150.67,78.08,86,80,13.38,PG,1600878462
Saint Paul Harbor,57.79,-152.41,51.8,81,90,10.29,US,1600878462
Dunedin,-45.87,170.5,48.99,86,80,4.0,NZ,1600878462
Mogadishu,2.04,45.34,78.37,83,9,14.92,SO,1600878284
Nantucket,41.28,-70.1,69.8,52,1,18.34,US,1600878408
Saskylakh,71.92,114.08,45.45,72,0,14.34,RU,1600878463
Riyadh,24.69,46.72,95.0,13,0,6.93,SA,1600878328
Takoradze,4.88,-1.76,77.76,82,67,12.15,GH,1600878463
Talaya,61.38,152.75,30.47,97,98,3.71,RU,1600878463
Hermanus,-34.42,19.23,64.99,72,0,1.01,ZA,1600878464
Coffs Harbour,-30.3,153.13,57.0,76,7,2.24,AU,1600878464
Sarakhs,36.54,61.16,64.4,34,0,8.03,IR,1600878464
Touros,-5.2,-35.46,86.0,55,40,17.22,BR,1600878464
Shelburne,44.08,-80.2,71.6,53,1,9.17,CA,1600878465
Alofi,-19.06,-169.92,66.2,100,100,2.24,NU,1600878465
‘Āhuimanu,21.44,-157.84,78.8,74,20,10.29,US,1600878465
Talakan,50.32,130.37,46.83,92,88,5.3,RU,1600878465
Leshukonskoye,64.9,45.76,40.68,89,29,4.29,RU,1600878465
Chicama,-7.84,-79.15,71.01,63,75,8.52,PE,1600878466
Jaciara,-15.97,-54.97,99.09,29,53,4.03,BR,1600878466
Turbat,26.0,63.04,89.8,12,0,23.49,PK,1600878466
Doha,25.29,51.53,93.2,52,0,4.7,QA,1600878334
Mount Isa,-20.73,139.5,71.6,26,0,9.17,AU,1600878467
Auki,-8.77,160.7,77.52,82,49,4.21,SB,1600878467
Vostok,46.49,135.88,42.51,98,0,3.2,RU,1600878467
Kristiansund,63.11,7.73,46.4,81,75,10.29,NO,1600878467
Semey,50.41,80.23,58.87,35,100,18.81,KZ,1600878467
Boende,-0.22,20.87,82.47,69,95,0.72,CD,1600878468
Suntar,62.14,117.63,43.75,75,0,4.72,RU,1600878468
Homer,59.64,-151.55,50.0,87,90,6.2,US,1600878468
Praia,14.92,-23.51,87.8,62,20,11.41,CV,1600878469
Sergeevka,53.88,67.42,43.02,77,85,16.26,KZ,1600878469
Maracaibo,10.63,-71.64,90.34,62,100,3.74,VE,1600878469
Richards Bay,-28.78,32.04,69.73,71,0,12.3,ZA,1600878469
Dārāb,28.75,54.54,81.16,16,0,20.22,IR,1600878470
Billerbeck,51.97,7.3,71.01,62,55,1.01,DE,1600878470
Opuwo,-18.06,13.84,92.37,11,86,8.19,NA,1600878470
Gombong,-7.61,109.51,66.0,84,100,4.07,ID,1600878470
Yumen,40.28,97.2,60.73,30,99,7.23,CN,1600878470
Bandar-e Lengeh,26.56,54.88,89.6,70,0,4.7,IR,1600878471
Aktobe,50.28,57.21,60.8,59,52,13.42,KZ,1600878471
Norman Wells,65.28,-126.83,37.4,86,40,4.7,CA,1600878421
Pilar,-9.6,-35.96,84.2,58,75,12.75,BR,1600878471
Panabá,21.28,-88.27,89.24,60,68,1.68,MX,1600878471
Aleksandrov Gay,50.15,48.57,65.05,48,10,6.17,RU,1600878472
Rovaniemi,66.5,25.72,46.4,100,90,12.75,FI,1600878472
São João da Barra,-21.64,-41.05,71.6,94,90,11.41,BR,1600878341
Chokurdakh,70.63,147.92,36.45,93,76,7.63,RU,1600878249
Kizema,61.11,44.83,41.85,81,42,3.56,RU,1600878472
Banda Aceh,5.56,95.32,77.97,83,100,13.22,ID,1600878473
Sobolevo,54.43,31.9,58.14,74,0,6.78,RU,1600878473
Gravdal,68.12,13.5,46.4,81,75,51.67,NO,1600878473
Volkhov,59.93,32.34,60.01,71,0,6.89,RU,1600878473
Korla,41.76,86.15,72.0,68,92,1.99,CN,1600878474
Liverpool,53.41,-2.98,55.99,76,40,16.11,GB,1600878205
Constitución,-35.33,-72.42,63.66,50,0,8.16,CL,1600878474
Datong,40.09,113.29,53.28,82,20,3.65,CN,1600878417
Leningradskiy,69.38,178.42,35.76,94,100,15.39,RU,1600878474
Lüderitz,-26.65,15.16,64.42,51,0,5.44,NA,1600878475
Narsaq,60.92,-46.05,41.0,25,40,10.29,GL,1600878475
Sarangani,5.4,125.46,84.7,71,97,6.33,PH,1600878475
Vârtop,44.2,23.35,81.0,41,88,1.12,RO,1600878476
Palu,-0.89,119.87,76.37,83,100,1.95,ID,1600878476
Hūn,29.13,15.95,96.03,17,0,3.22,LY,1600878476
Ukiah,39.15,-123.21,62.01,55,1,1.59,US,1600878158
Torres,-29.34,-49.73,68.59,63,1,11.68,BR,1600878476
Alindao,5.03,21.21,77.61,90,100,0.67,CF,1600878477
Severo-Kuril'sk,50.68,156.12,46.65,75,5,14.74,RU,1600878477
Vila Velha,-20.33,-40.29,69.8,94,90,20.8,BR,1600878477
Sonepur,20.83,83.92,81.0,85,100,3.69,IN,1600878477
Nishihara,26.18,127.76,80.6,88,20,3.36,JP,1600878478
Sulangan,11.14,123.72,84.45,72,95,4.12,PH,1600878478
Katsina,12.99,7.6,94.73,29,0,8.93,NG,1600878478
Beatrice,40.27,-96.75,68.0,94,90,6.93,US,1600878478
Cockburn Town,21.46,-71.14,83.14,74,4,10.36,TC,1600878479
Alice Springs,-23.7,133.88,55.4,37,0,3.36,AU,1600878479
Adrar,20.5,-10.07,102.72,14,0,14.61,MR,1600878479
Ostrovnoy,68.05,39.51,44.47,71,78,12.97,RU,1600878479
Monastyrshchina,54.35,31.84,58.17,73,0,6.82,RU,1600878479
Vestmanna,62.16,-7.17,42.8,87,79,17.22,FO,1600878480
Marzuq,14.4,46.47,82.83,38,100,4.09,YE,1600878480
Zapolyarnyy,69.42,30.81,44.6,65,75,25.28,RU,1600878480
Lavrentiya,65.58,-171.0,38.41,85,86,4.65,RU,1600878480
San Jose,37.34,-121.89,68.0,63,20,2.53,US,1600878481
Cap Malheureux,-19.98,57.61,69.01,71,1,5.01,MU,1600878481
Bull Savanna,17.89,-77.59,84.85,64,10,8.41,JM,1600878481
Egvekinot,66.32,-179.17,33.91,89,90,2.82,RU,1600878288
Gachsaran,30.36,50.8,91.4,21,0,3.71,IR,1600878481
College,64.86,-147.8,46.4,65,90,8.05,US,1600878482
Quatre Cocos,-20.21,57.76,69.8,73,40,3.36,MU,1600878482
Warmbad,-28.45,18.73,87.24,11,0,5.68,NA,1600878482
Pemba,-12.97,40.52,77.11,79,0,20.96,MZ,1600878482
Bilibino,68.05,166.44,33.57,93,100,5.01,RU,1600878483
Malartic,48.13,-78.13,62.6,72,75,5.82,CA,1600878483
Lentekhi,42.79,42.73,60.71,69,39,0.81,GE,1600878483
Manta,-0.95,-80.73,77.0,73,75,6.93,EC,1600878483
Sovetskiy,61.36,63.58,42.46,92,99,7.65,RU,1600878484
Poum,-20.23,164.02,71.89,79,21,11.39,NC,1600878484
Sørland,67.67,12.69,44.6,87,90,59.73,NO,1600878484
Nabire,-3.37,135.48,75.81,84,88,3.02,ID,1600878307
Vardø,70.37,31.11,44.6,75,75,17.22,NO,1600878485
Porto-Novo,6.5,2.6,82.4,78,40,12.75,BJ,1600878485
Mackay,-21.15,149.2,69.8,94,90,5.82,AU,1600878485
George Town,5.41,100.34,84.0,83,40,3.36,MY,1600878337
Arys,42.43,68.8,55.4,35,10,4.47,KZ,1600878485
Taoudenni,22.68,-3.98,110.61,7,33,7.78,ML,1600878486
Nakhon Phanom,17.41,104.78,77.47,88,100,1.74,TH,1600878486
Bereda,43.27,-7.54,73.99,70,100,13.0,ES,1600878486
Avigliana,45.08,7.4,73.4,56,75,2.24,IT,1600878487
Qarqīn,37.42,66.04,67.39,22,0,11.63,AF,1600878487
Benguela,-12.58,13.41,73.4,83,27,6.93,AO,1600878487
Laramie,41.31,-105.59,66.2,29,1,14.99,US,1600878487
Dhidhdhoo,6.88,73.1,82.36,79,90,15.55,MV,1600878488
Fasa,28.94,53.65,80.6,14,0,4.7,IR,1600878488
Kysyl-Syr,63.9,122.76,39.76,74,65,3.24,RU,1600878488
Ciudad Bolivar,8.12,-63.55,91.76,53,94,7.63,VE,1600878489
Kholm,59.27,32.85,56.34,83,0,5.91,RU,1600878489
Bandarbeyla,9.49,50.81,78.08,77,86,32.12,SO,1600878489
Guerrero Negro,27.98,-114.06,78.55,56,0,7.07,MX,1600878296
Edd,13.93,41.69,90.43,60,73,1.74,ER,1600878489
Lakes Entrance,-37.88,147.98,44.01,88,8,16.28,AU,1600878490
Tasiilaq,65.61,-37.64,32.0,89,20,4.7,GL,1600878490
Felanitx,39.47,3.15,80.6,74,40,10.29,ES,1600878490
Torbay,47.67,-52.73,66.0,100,90,26.4,CA,1600878490
Atambua,-9.11,124.89,72.9,81,18,4.65,ID,1600878491
Donji Milanovac,44.46,22.15,71.33,53,81,5.21,RS,1600878491
Nueve de Julio,-35.44,-60.88,71.44,47,87,5.57,AR,1600878491
Ayan,56.45,138.17,50.72,68,42,3.53,RU,1600878491
Shimorskoye,55.32,42.03,55.31,73,65,1.95,RU,1600878492
Carnarvon,-24.87,113.63,62.6,72,69,4.7,AU,1600878492
Raduzhny,62.1,77.47,43.12,81,97,9.13,RU,1600878452
Westport,41.14,-73.36,75.2,44,1,10.29,US,1600878492
Nelson Bay,-32.72,152.15,57.0,71,0,9.17,AU,1600878492
Balikpapan,-1.27,116.83,76.6,92,100,4.5,ID,1600878493
San Andrés,12.58,-81.7,87.8,74,40,6.93,CO,1600878493
Tarakan,3.3,117.63,79.95,78,78,7.36,ID,1600878493
Gijang,35.24,129.21,68.0,68,75,9.17,KR,1600878493
Nacala,-14.54,40.67,75.11,72,0,12.17,MZ,1600878494
Strezhevoy,60.73,77.59,42.8,87,40,8.95,RU,1600878494
Borås,57.72,12.94,61.0,67,0,10.29,SE,1600878358
Hammerfest,70.66,23.68,46.4,75,75,28.86,NO,1600878494
Tomatlán,19.93,-105.25,87.35,68,30,1.7,MX,1600878495
Turaif,31.67,38.66,91.4,21,0,6.93,SA,1600878495
Giyani,-23.3,30.72,75.78,34,0,5.48,ZA,1600878495
Esim,4.87,-2.24,78.1,81,56,11.36,GH,1600878495
Tual,-5.67,132.75,80.26,84,35,16.69,ID,1600878496
Husavik,66.04,-17.34,37.4,82,40,14.99,IS,1600878496
Saint Joseph,39.77,-94.85,71.6,73,90,6.93,US,1600878408
Aklavik,68.22,-135.01,32.0,91,90,5.82,CA,1600878496
Port Hedland,-20.32,118.57,71.6,37,20,8.05,AU,1600878496
Ilhéus,-14.79,-39.05,80.6,83,75,5.82,BR,1600878497
Puhja,58.34,26.31,68.0,64,0,8.05,EE,1600878497
Nanortalik,60.14,-45.24,39.54,72,88,11.65,GL,1600878497
Ramnagar,29.4,79.12,75.54,90,71,5.41,IN,1600878497
Abu Samrah,35.3,37.18,78.76,48,0,10.85,SY,1600878498
Khatanga,71.97,102.5,46.72,92,100,5.82,RU,1600878498
Coquimbo,-29.95,-71.34,53.6,93,90,12.75,CL,1600878498
Tahe,52.33,124.73,48.58,96,100,2.95,CN,1600878498
Los Llanos de Aridane,28.66,-17.92,78.8,74,20,3.36,ES,1600878498
Altamira,-3.2,-52.21,93.2,52,75,5.82,BR,1600878424
Ahome,25.92,-109.18,90.0,62,40,5.82,MX,1600878499
Mazurivka,49.27,24.21,73.4,46,19,4.47,UA,1600878499
Flin Flon,54.77,-101.86,50.0,76,75,6.93,CA,1600878499
Luleå,65.58,22.15,51.8,87,90,8.05,SE,1600878500
Bosaso,11.28,49.18,90.66,53,100,5.19,SO,1600878500
Norton Shores,43.17,-86.26,75.2,57,20,6.93,US,1600878500
Sistranda,63.73,8.83,50.0,71,40,16.11,NO,1600878500
Khovd,48.01,91.64,52.95,44,73,3.85,MN,1600878501
Waingapu,-9.66,120.26,77.14,82,24,5.1,ID,1600878501
Allāpalli,19.42,80.07,77.65,94,100,4.32,IN,1600878501
Grong,64.47,12.31,48.2,81,75,13.87,NO,1600878501
Birobidzhan,48.8,132.95,51.22,93,96,3.85,RU,1600878502
Azogues,-2.73,-78.83,57.2,87,90,3.36,EC,1600878502
Atasū,48.68,71.64,57.09,40,100,29.86,KZ,1600878502
Juba,4.85,31.58,76.24,80,97,3.47,SS,1600878502
Belmonte,-15.86,-38.88,80.6,69,40,16.11,BR,1600878503
Soe,-9.86,124.28,65.86,84,6,4.59,ID,1600878503
Pevek,69.7,170.31,37.85,97,100,16.46,RU,1600878503
Krasnaya Gorbatka,55.87,41.76,54.28,79,4,1.74,RU,1600878503
Seydişehir,37.42,31.85,70.29,40,3,3.4,TR,1600878503
Chambas,22.19,-78.91,86.0,70,75,10.29,CU,1600878504
Carahue,-38.7,-73.17,57.2,58,90,6.93,CL,1600878504
Alyangula,-13.85,136.42,73.4,94,0,3.38,AU,1600878504
Northam,51.03,-4.22,57.0,84,98,5.99,GB,1600878504
Khovu-Aksy,51.13,93.6,49.48,70,100,7.52,RU,1600878505
Honiara,-9.43,159.95,73.4,100,40,2.24,SB,1600878505
Praia da Vitória,38.73,-27.07,69.01,88,75,22.62,PT,1600878505
Kiama,-34.68,150.87,55.0,64,0,8.99,AU,1600878505
Pedasí,7.53,-80.03,83.34,70,100,0.63,PA,1600878506
Lethem,3.38,-59.8,91.94,53,16,9.22,GY,1600878506
Toguchin,55.24,84.39,42.75,84,60,10.58,RU,1600878299
Sept-Îles,50.2,-66.38,55.4,66,75,8.05,CA,1600878264
San Patricio,19.22,-104.7,86.0,74,40,0.67,MX,1600878506
Tampakan,6.44,124.93,76.23,82,100,1.79,PH,1600878507
Kirakira,-10.45,161.92,78.46,83,97,7.11,SB,1600878507
Cururupu,-1.83,-44.87,85.03,62,75,7.74,BR,1600878507
Micheweni,-4.97,39.83,77.68,81,14,9.73,TZ,1600878507
Saint-Joseph,-21.37,55.62,68.0,68,16,6.87,RE,1600878508
Antalaha,-14.9,50.28,70.81,70,78,12.21,MG,1600878508
Taltal,-25.4,-70.48,62.19,61,38,5.75,CL,1600878508
Chalmette,29.94,-89.96,79.0,94,90,16.11,US,1600878300
Vallenar,-28.57,-70.76,86.07,17,89,7.7,CL,1600878509
Kamina,-8.74,24.99,82.2,28,0,2.35,CD,1600878509
Dukat,62.55,155.55,28.71,91,97,4.09,RU,1600878509
Mossamedes,-15.2,12.15,67.37,79,29,13.44,AO,1600878509
Hwange,-18.37,26.5,83.86,25,0,6.38,ZW,1600878510
Fes,34.04,-5.0,91.4,21,85,12.75,MA,1600878510
Caiapônia,-16.96,-51.81,89.6,35,99,2.17,BR,1600878510
Hofn,64.25,-15.21,42.8,52,40,19.46,IS,1600878510
Road Town,18.42,-64.62,87.8,79,40,9.17,VG,1600878235
Salamiyah,35.01,37.05,75.6,61,0,14.09,SY,1600878511
Sonoma,38.55,-122.9,63.0,72,1,2.06,US,1600878511
Luocheng,29.38,104.03,63.07,96,18,2.62,CN,1600878511
Prome,18.82,95.22,77.63,93,100,4.63,MM,1600878511
Maryville,35.76,-83.97,66.99,63,90,9.17,US,1600878306
Letlhakeng,-24.09,25.03,78.91,26,15,5.7,BW,1600878512
Cidreira,-30.18,-50.21,66.7,64,2,11.39,BR,1600878512
Weligama,5.97,80.42,78.58,87,29,7.67,LK,1600878512
Beringovskiy,63.05,179.32,40.53,71,59,8.37,RU,1600878512
Havøysund,71.0,24.66,46.4,65,75,16.11,NO,1600878513
Byron Bay,-28.65,153.62,66.99,67,100,6.93,AU,1600878513
Hakodate,41.78,140.74,62.64,82,98,16.62,JP,1600878513
Laas,46.62,10.7,61.0,93,40,4.7,IT,1600878513
Banjar,-8.19,114.97,78.8,100,20,3.36,ID,1600878514
Ankang,32.68,109.02,61.68,83,0,0.34,CN,1600878514
Trelew,-43.25,-65.31,63.54,28,0,9.28,AR,1600878395
Santa Rosa,14.31,121.11,78.8,88,75,1.12,PH,1600878514
Ancud,-41.87,-73.82,53.01,58,0,2.39,CL,1600878514
Vila do Maio,15.13,-23.22,87.8,62,20,11.41,CV,1600878515
Bonthe,7.53,-12.51,81.59,79,36,11.23,SL,1600878515
Torit,4.41,32.57,74.7,83,55,2.3,SS,1600878515
Khani,41.96,42.96,71.6,88,5,6.93,GE,1600878515
Bernalillo,35.05,-106.67,75.0,28,20,5.82,US,1600878516
Khorol,49.78,33.28,63.75,28,0,4.36,UA,1600878516
Zaysan,47.47,84.87,49.06,48,46,4.14,KZ,1600878516
Tongren,27.72,109.19,61.52,90,100,0.58,CN,1600878228
Rawson,-43.3,-65.1,60.01,33,0,4.23,AR,1600878516
Lata,40.16,-8.33,75.99,71,96,3.0,PT,1600878517
Jacareacanga,-6.22,-57.75,96.3,36,21,4.74,BR,1600878517
Asău,46.43,26.4,70.0,49,4,8.05,RO,1600878517
Panji,-7.73,114.1,78.19,63,0,5.41,ID,1600878518
Lishui,28.46,119.91,64.67,89,100,2.51,CN,1600878518
Kedrovyy,56.17,91.82,46.4,81,40,4.47,RU,1600878518
Mādhogarh,26.28,79.19,80.04,84,100,8.7,IN,1600878518
Parnarama,-5.68,-43.09,104.09,20,0,6.31,BR,1600878519
Harper,4.38,-7.72,78.66,84,56,13.11,LR,1600878519
St. George's,12.06,-61.75,89.6,70,40,18.34,GD,1600878519
Yārāda,17.65,83.27,84.2,83,40,4.7,IN,1600878519
Puerto Ayacucho,5.66,-67.62,91.4,49,40,5.82,VE,1600878520
Måløy,61.94,5.11,51.8,62,20,13.87,NO,1600878382
Saint Anthony,45.02,-93.22,75.0,56,1,5.82,US,1600878520
Areosa,41.72,-8.86,69.8,73,75,4.7,PT,1600878520
Matara,5.95,80.54,78.35,87,25,8.12,LK,1600878520
Jieshi,22.81,115.83,84.99,83,64,3.11,CN,1600878521
North Bend,43.41,-124.22,66.2,82,90,16.11,US,1600878521
Provideniya,64.38,-173.3,36.9,81,6,4.25,RU,1600878521
Elizabeth City,36.29,-76.25,73.4,53,1,4.7,US,1600878522
Rio Grande,-32.03,-52.1,64.87,70,68,6.38,BR,1600878522
San Cristobal,7.77,-72.22,87.8,48,40,24.16,VE,1600878488
Inongo,-1.95,18.27,77.61,78,53,2.08,CD,1600878522
Saginaw,43.33,-84.03,73.0,64,1,4.7,US,1600878522
Cochrane,51.18,-114.47,53.6,70,1,2.24,CA,1600878523
Tabuk,17.42,121.44,74.44,87,87,3.02,PH,1600878523
Ipameri,-17.72,-48.16,90.93,30,91,4.92,BR,1600878523
Lipari,38.47,14.95,80.01,72,83,2.28,IT,1600878524
Beaucaire,43.81,4.64,77.0,60,0,9.17,FR,1600878524
Hay River,60.82,-115.8,51.8,66,75,6.93,CA,1600878524
Batagay,67.63,134.63,37.67,79,37,0.81,RU,1600878524
Lubango,-14.92,13.49,82.4,30,55,4.7,AO,1600878525
Itaituba,-4.28,-55.98,95.0,50,20,4.5,BR,1600878387
Akdepe,42.06,59.38,64.4,39,0,4.7,TM,1600878525
Manokwari,-0.87,134.08,78.62,76,26,4.72,ID,1600878526
Togur,58.36,82.83,39.87,95,43,8.88,RU,1600878526
Neuquén,-38.95,-68.06,66.2,29,0,6.93,AR,1600878526
Carbonia,39.17,8.52,82.4,61,20,13.87,IT,1600878527
Krasnosel'kup,65.7,82.47,38.53,84,24,9.26,RU,1600878527
Umluj,25.02,37.27,86.25,72,0,6.8,SA,1600878527
Erzin,36.96,36.2,82.99,77,3,4.0,TR,1600878528
Nidzica,53.36,20.43,73.4,49,6,4.7,PL,1600878528
Sechura,-5.56,-80.82,72.25,61,71,6.13,PE,1600878528
Mishelevka,52.86,103.17,45.93,70,25,12.93,RU,1600878528
Fjerritslev,57.08,9.27,64.0,82,81,5.99,DK,1600878529
Ruiru,-1.16,36.96,77.0,44,40,10.29,KE,1600878529
Olinda,-8.01,-34.86,84.2,62,40,10.29,BR,1600878529
Ugoofaaru,5.67,73.0,82.26,79,67,12.84,MV,1600878530
